STOP_ID,DIRECTION_ID,STOP_NAME,STATION_NAME,STATION_DESCRIPTIVE_NAME,MAP_ID,ADA,RED,BLUE,G,BRN,P,PEXP,Y,PNK,O,LOCATION
30082,E,CICERO (LOOP-BOUND),CICERO,CICERO (PINK LINE),40420,TRUE,FALSE,FALSE,FALSE,FALSE,FALSE,FALSE,FALSE,TRUE,FALSE,"(41.85182, -87.745336)"
30151,E,CENTRAL PARK (LOOP-BOUND),CENTRAL PARK,CENTRAL PARK (PINK LINE),40780,TRUE,FALSE,FALSE,FALSE,FALSE,FALSE,FALSE,FALSE,TRUE,FALSE,"(41.853839, -87.714842)"
30184,W,HALSTED/63RD (ASHLAND-BOUND),HALSTED,HALSTED (GREEN LINE),40940,TRUE,FALSE,FALSE,TRUE,FALSE,FALSE,FALSE,FALSE,FALSE,FALSE,"(41.778943, -87.644244)"
30044,N,CUMBERLAND (O'HARE-BOUND),CUMBERLAND,CUMBERLAND (BLUE LINE),40230,TRUE,FALSE,TRUE,FALSE,FALSE,FALSE,FALSE,FALSE,FALSE,FALSE,"(41.984246, -87.838028)"
30092,E,RACINE (O'HARE-BOUND),RACINE,RACINE (BLUE LINE),40470,FALSE,FALSE,TRUE,FALSE,FALSE,FALSE,FALSE,FALSE,FALSE,FALSE,"(41.87592, -87.659458)"
30253,N,PAULINA (KIMBALL-BOUND),PAULINA,PAULINA (BROWN LINE),41310,TRUE,FALSE,FALSE,FALSE,TRUE,FALSE,FALSE,FALSE,FALSE,FALSE,"(41.943623, -87.670907)"
30162,W,18TH (54TH/CERMAK-BOUND),18TH,18TH (PINK LINE),40830,TRUE,FALSE,FALSE,FALSE,FALSE,FALSE,FALSE,FALSE,TRUE,FALSE,"(41.857908, -87.669147)"
30374,S,CLARK/LAKE (FOREST PK-BOUND),CLARK/LAKE,"CLARK/LAKE (BLUE, BROWN, GREEN, ORANGE, PURPLE & PINK LINES)",40380,TRUE,FALSE,TRUE,FALSE,FALSE,FALSE,FALSE,FALSE,FALSE,FALSE,"(41.885737, -87.630886)"
30248,S,JEFFERSON PARK (FOREST PK-BOUND),JEFFERSON PARK,JEFFERSON PARK (BLUE LINE),41280,TRUE,FALSE,TRUE,FALSE,FALSE,FALSE,FALSE,FALSE,FALSE,FALSE,"(41.970634, -87.760892)"
30104,S,DIVERSEY (LOOP-BOUND),DIVERSEY,DIVERSEY (BROWN & PURPLE LINES),40530,TRUE,FALSE,FALSE,FALSE,TRUE,FALSE,TRUE,FALSE,FALSE,FALSE,"(41.932732, -87.653131)"
30287,N,MONTROSE (KIMBALL-BOUND),MONTROSE,MONTROSE (BROWN LINE),41500,TRUE,FALSE,FALSE,FALSE,TRUE,FALSE,FALSE,FALSE,FALSE,FALSE,"(41.961756, -87.675047)"
30068,E,UIC-HALSTED (O'HARE-BOUND),UIC-HALSTED,UIC-HALSTED (BLUE LINE),40350,TRUE,FALSE,TRUE,FALSE,FALSE,FALSE,FALSE,FALSE,FALSE,FALSE,"(41.875474, -87.649707)"
30214,S,35-BRONZEVILLE-IIT (63RD-BOUND),35TH-BRONZEVILLE-IIT,35TH-BRONZEVILLE-IIT (GREEN LINE),41120,TRUE,FALSE,FALSE,TRUE,FALSE,FALSE,FALSE,FALSE,FALSE,FALSE,"(41.831677, -87.625826)"
30102,S,FOSTER (HOWARD-LOOP-BOUND),FOSTER,FOSTER (PURPLE LINE),40520,FALSE,FALSE,FALSE,FALSE,FALSE,TRUE,TRUE,FALSE,FALSE,FALSE,"(42.05416, -87.68356)"
30008,S,QUINCY/WELLS (OUTER LOOP),QUINCY/WELLS,"QUINCY/WELLS (BROWN, ORANGE, PURPLE & PINK LINES)",40040,TRUE,FALSE,FALSE,FALSE,TRUE,FALSE,FALSE,FALSE,FALSE,FALSE,"(41.878723, -87.63374)"
30070,N,SOUTHPORT (KIMBALL-BOUND),SOUTHPORT,SOUTHPORT (BROWN LINE),40360,TRUE,FALSE,FALSE,FALSE,TRUE,FALSE,FALSE,FALSE,FALSE,FALSE,"(41.943744, -87.663619)"
30252,S,LOYOLA (95TH-BOUND),LOYOLA,LOYOLA (RED LINE),41300,TRUE,TRUE,FALSE,FALSE,FALSE,FALSE,FALSE,FALSE,FALSE,FALSE,"(42.001073, -87.661061)"
30237,N,47TH (HOWARD-BOUND),47TH,47TH (RED LINE),41230,TRUE,TRUE,FALSE,FALSE,FALSE,FALSE,FALSE,FALSE,FALSE,FALSE,"(41.810318, -87.63094)"
30267,N,BRYN MAWR (HOWARD-BOUND),BRYN MAWR,BRYN MAWR (RED LINE),41380,FALSE,TRUE,FALSE,FALSE,FALSE,FALSE,FALSE,FALSE,FALSE,FALSE,"(41.983504, -87.65884)"
30190,W,HARLEM (FOREST PK BRANCH) (TERMINAL ARRIVAL),HARLEM,HARLEM (BLUE LINE - FOREST PARK BRANCH),40980,FALSE,FALSE,TRUE,FALSE,FALSE,FALSE,FALSE,FALSE,FALSE,FALSE,"(41.87349, -87.806961)"
30173,N,HOWARD (TERMINAL ARRIVAL),HOWARD,"HOWARD (RED, PURPLE & YELLOW LINES)",40900,TRUE,TRUE,FALSE,FALSE,FALSE,FALSE,FALSE,FALSE,FALSE,FALSE,"(42.019063, -87.672892)"
30207,E,KEDZIE (63RD-BOUND),KEDZIE,KEDZIE (GREEN LINE),41070,TRUE,FALSE,FALSE,TRUE,FALSE,FALSE,FALSE,FALSE,FALSE,FALSE,"(41.884321, -87.706155)"
30218,W,KING DRIVE (HARLEM-BOUND),KING DRIVE,KING DRIVE (GREEN LINE),41140,TRUE,FALSE,FALSE,TRUE,FALSE,FALSE,FALSE,FALSE,FALSE,FALSE,"(41.78013, -87.615546)"
30057,W,ASHLAND/63RD (TERMINAL ARRIVAL),ASHLAND/63RD,ASHLAND/63RD (GREEN LINE),40290,TRUE,FALSE,FALSE,TRUE,FALSE,FALSE,FALSE,FALSE,FALSE,FALSE,"(41.77886, -87.663766)"
30088,N,95TH/DAN RYAN (HOWARD-BOUND),95TH/DAN RYAN,95TH/DAN RYAN (RED LINE),40450,TRUE,TRUE,FALSE,FALSE,FALSE,FALSE,FALSE,FALSE,FALSE,FALSE,"(41.722377, -87.624342)"
30129,N,WESTERN (O'HARE BRANCH) (O'HARE-BOUND),WESTERN,WESTERN (BLUE LINE - O'HARE BRANCH),40670,TRUE,FALSE,TRUE,FALSE,FALSE,FALSE,FALSE,FALSE,FALSE,FALSE,"(41.916157, -87.687364)"
30128,S,ARMITAGE (LOOP-BOUND),ARMITAGE,ARMITAGE (BROWN & PURPLE LINES),40660,TRUE,FALSE,FALSE,FALSE,TRUE,FALSE,TRUE,FALSE,FALSE,FALSE,"(41.918217, -87.652644)"
30089,S,95TH/DAN RYAN (95TH-BOUND),95TH/DAN RYAN,95TH/DAN RYAN (RED LINE),40450,TRUE,TRUE,FALSE,FALSE,FALSE,FALSE,FALSE,FALSE,FALSE,FALSE,"(41.722377, -87.624342)"
30269,N,ROOSEVELT (HOWARD-BOUND),ROOSEVELT,"ROOSEVELT (RED, ORANGE & GREEN LINES)",41400,TRUE,TRUE,FALSE,FALSE,FALSE,FALSE,FALSE,FALSE,FALSE,FALSE,"(41.867368, -87.627402)"
30256,S,BELMONT (95TH-BOUND),BELMONT,"BELMONT (RED, BROWN & PURPLE LINES)",41320,TRUE,TRUE,FALSE,FALSE,FALSE,FALSE,FALSE,FALSE,FALSE,FALSE,"(41.939751, -87.65338)"
30114,W,54TH/CERMAK (TERMINAL ARRIVAL),54TH/CERMAK,54TH/CERMAK (PINK LINE),40580,TRUE,FALSE,FALSE,FALSE,FALSE,FALSE,FALSE,FALSE,TRUE,FALSE,"(41.85177331, -87.75669201)"
30217,E,KING DRIVE (COTTAGE GROVE-BOUND),KING DRIVE,KING DRIVE (GREEN LINE),41140,TRUE,FALSE,FALSE,TRUE,FALSE,FALSE,FALSE,FALSE,FALSE,FALSE,"(41.78013, -87.615546)"
30134,S,DEMPSTER (HOWARD-LOOP-BOUND),DEMPSTER,DEMPSTER (PURPLE LINE),40690,FALSE,FALSE,FALSE,FALSE,FALSE,TRUE,TRUE,FALSE,FALSE,FALSE,"(42.041655, -87.681602)"
30236,S,FULLERTON (LOOP-BOUND),FULLERTON,"FULLERTON (RED, BROWN & PURPLE LINES)",41220,TRUE,FALSE,FALSE,FALSE,TRUE,FALSE,TRUE,FALSE,FALSE,FALSE,"(41.925051, -87.652866)"
30149,N,LAWRENCE (HOWARD-BOUND),LAWRENCE,LAWRENCE (RED LINE),40770,FALSE,TRUE,FALSE,FALSE,FALSE,FALSE,FALSE,FALSE,FALSE,FALSE,"(41.969139, -87.658493)"
30158,W,ILLINOIS MEDICAL DISTRICT (FOREST PK-BOUND),ILLINOIS MEDICAL DISTRICT,ILLINOIS MEDICAL DISTRICT (BLUE LINE),40810,TRUE,FALSE,TRUE,FALSE,FALSE,FALSE,FALSE,FALSE,FALSE,FALSE,"(41.875706, -87.673932)"
30290,S,LAKE (95TH-BOUND),LAKE,LAKE (RED LINE),41660,TRUE,TRUE,FALSE,FALSE,FALSE,FALSE,FALSE,FALSE,FALSE,FALSE,"(41.884809, -87.627813)"
30047,S,79TH (95TH-BOUND),79TH,79TH (RED LINE),40240,TRUE,TRUE,FALSE,FALSE,FALSE,FALSE,FALSE,FALSE,FALSE,FALSE,"(41.750419, -87.625112)"
30243,E,AUSTIN (63RD-BOUND),AUSTIN,AUSTIN (GREEN LINE),41260,FALSE,FALSE,FALSE,TRUE,FALSE,FALSE,FALSE,FALSE,FALSE,FALSE,"(41.887293, -87.774135)"
30084,E,CLINTON (O'HARE-BOUND),CLINTON,CLINTON (BLUE LINE),40430,FALSE,FALSE,TRUE,FALSE,FALSE,FALSE,FALSE,FALSE,FALSE,FALSE,"(41.875539, -87.640984)"
30231,N,WELLINGTON (KIMBALL-LINDEN-BOUND),WELLINGTON,WELLINGTON (BROWN & PURPLE LINES),41210,TRUE,FALSE,FALSE,FALSE,TRUE,FALSE,TRUE,FALSE,FALSE,FALSE,"(41.936033, -87.653266)"
30175,N,"HOWARD (LINDEN, SKOKIE-BOUND)",HOWARD,"HOWARD (RED, PURPLE & YELLOW LINES)",40900,TRUE,FALSE,FALSE,FALSE,FALSE,TRUE,TRUE,TRUE,FALSE,FALSE,"(42.019063, -87.672892)"
30263,E,OAK PARK (63RD-BOUND),OAK PARK,OAK PARK (GREEN LINE),41350,FALSE,FALSE,FALSE,TRUE,FALSE,FALSE,FALSE,FALSE,FALSE,FALSE,"(41.886988, -87.793783)"
30130,S,WESTERN (O'HARE BRANCH) (FOREST PK-BOUND),WESTERN,WESTERN (BLUE LINE - O'HARE BRANCH),40670,TRUE,FALSE,TRUE,FALSE,FALSE,FALSE,FALSE,FALSE,FALSE,FALSE,"(41.916157, -87.687364)"
30268,S,BRYN MAWR (95TH-BOUND),BRYN MAWR,BRYN MAWR (RED LINE),41380,FALSE,TRUE,FALSE,FALSE,FALSE,FALSE,FALSE,FALSE,FALSE,FALSE,"(41.983504, -87.65884)"
30279,N,CHICAGO (HOWARD-BOUND),CHICAGO,CHICAGO (RED LINE),41450,TRUE,TRUE,FALSE,FALSE,FALSE,FALSE,FALSE,FALSE,FALSE,FALSE,"(41.896671, -87.628176)"
30155,N,SEDGWICK (KIMBALL-LINDEN-BOUND),SEDGWICK,SEDGWICK (BROWN & PURPLE LINES),40800,TRUE,FALSE,FALSE,FALSE,TRUE,FALSE,TRUE,FALSE,FALSE,FALSE,"(41.910409, -87.639302)"
30239,N,ADDISON (O'HARE-BOUND),ADDISON,ADDISON (BLUE LINE),41240,TRUE,FALSE,TRUE,FALSE,FALSE,FALSE,FALSE,FALSE,FALSE,FALSE,"(41.94738, -87.71906)"
30288,S,MONTROSE (LOOP-BOUND),MONTROSE,MONTROSE (BROWN LINE),41500,TRUE,FALSE,FALSE,FALSE,TRUE,FALSE,FALSE,FALSE,FALSE,FALSE,"(41.961756, -87.675047)"
30015,S,JACKSON/DEARBORN (FOREST PK-BOUND),JACKSON,JACKSON (BLUE LINE),40070,TRUE,FALSE,TRUE,FALSE,FALSE,FALSE,FALSE,FALSE,FALSE,FALSE,"(41.878183, -87.629296)"
30202,W,KEDZIE (54TH/CERMAK-BOUND),KEDZIE,KEDZIE (PINK LINE),41040,TRUE,FALSE,FALSE,FALSE,FALSE,FALSE,FALSE,FALSE,TRUE,FALSE,"(41.853964, -87.705408)"
30154,S,MONROE (FOREST PK-BOUND),MONROE,MONROE (BLUE LINE),40790,FALSE,FALSE,TRUE,FALSE,FALSE,FALSE,FALSE,FALSE,FALSE,FALSE,"(41.880703, -87.629378)"
30195,N,ROCKWELL (KIMBALL-BOUND),ROCKWELL,ROCKWELL (BROWN LINE),41010,TRUE,FALSE,FALSE,FALSE,TRUE,FALSE,FALSE,FALSE,FALSE,FALSE,"(41.966115, -87.6941)"
30041,W,DAMEN (54TH/CERMAK-BOUND),DAMEN,DAMEN (PINK LINE),40210,TRUE,FALSE,FALSE,FALSE,FALSE,FALSE,FALSE,FALSE,TRUE,FALSE,"(41.854517, -87.675975)"
30180,W,PULASKI (FOREST PK-BOUND),PULASKI,PULASKI (BLUE LINE),40920,FALSE,FALSE,TRUE,FALSE,FALSE,FALSE,FALSE,FALSE,FALSE,FALSE,"(41.873797, -87.725663)"
30101,N,FOSTER (LINDEN-BOUND),FOSTER,FOSTER (PURPLE LINE),40520,FALSE,FALSE,FALSE,FALSE,FALSE,TRUE,TRUE,FALSE,FALSE,FALSE,"(42.05416, -87.68356)"
30004,W,HARLEM (TERMINAL ARRIVAL),HARLEM/LAKE,HARLEM/LAKE (GREEN LINE),40020,TRUE,FALSE,FALSE,TRUE,FALSE,FALSE,FALSE,FALSE,FALSE,FALSE,"(41.886848, -87.803176)"
30384,S,WASHINGTON/WABASH (INNER LOOP),WASHINGTON/WABASH,"WASHINGTON/WABASH (BROWN, GREEN, ORANGE, PURPLE & PINK LINES)",41700,TRUE,FALSE,FALSE,TRUE,FALSE,FALSE,TRUE,FALSE,TRUE,TRUE,"(41.88322, -87.626189)"
30266,W,CALIFORNIA (HARLEM-BOUND),CALIFORNIA,CALIFORNIA (GREEN LINE),41360,TRUE,FALSE,FALSE,TRUE,FALSE,FALSE,FALSE,FALSE,FALSE,FALSE,"(41.88422, -87.696234)"
30021,S,MORSE (95TH-BOUND),MORSE,MORSE (RED LINE),40100,FALSE,TRUE,FALSE,FALSE,FALSE,FALSE,FALSE,FALSE,FALSE,FALSE,"(42.008362, -87.665909)"
30060,N,WESTERN (LOOP-BOUND),WESTERN,WESTERN (ORANGE LINE),40310,TRUE,FALSE,FALSE,FALSE,FALSE,FALSE,FALSE,FALSE,FALSE,TRUE,"(41.804546, -87.684019)"
30096,S,GRAND/MILWAUKEE (FOREST PK-BOUND),GRAND,GRAND (BLUE LINE),40490,FALSE,FALSE,TRUE,FALSE,FALSE,FALSE,FALSE,FALSE,FALSE,FALSE,"(41.891189, -87.647578)"
30375,N,CLARK/LAKE (O'HARE-BOUND),CLARK/LAKE,"CLARK/LAKE (BLUE, BROWN, GREEN, ORANGE, PURPLE & PINK LINES)",40380,TRUE,FALSE,TRUE,FALSE,FALSE,FALSE,FALSE,FALSE,FALSE,FALSE,"(41.885737, -87.630886)"
30095,N,GRAND/MILWAUKEE (O'HARE-BOUND),GRAND,GRAND (BLUE LINE),40490,FALSE,FALSE,TRUE,FALSE,FALSE,FALSE,FALSE,FALSE,FALSE,FALSE,"(41.891189, -87.647578)"
30062,N,DIVISION (O'HARE-BOUND),DIVISION,DIVISION (BLUE LINE),40320,FALSE,FALSE,TRUE,FALSE,FALSE,FALSE,FALSE,FALSE,FALSE,FALSE,"(41.903355, -87.666496)"
30185,N,PULASKI (LOOP-BOUND),PULASKI,PULASKI (ORANGE LINE),40960,TRUE,FALSE,FALSE,FALSE,FALSE,FALSE,FALSE,FALSE,FALSE,TRUE,"(41.799756, -87.724493)"
30161,E,18TH (LOOP-BOUND),18TH,18TH (PINK LINE),40830,TRUE,FALSE,FALSE,FALSE,FALSE,FALSE,FALSE,FALSE,TRUE,FALSE,"(41.857908, -87.669147)"
30293,N,SHERIDAN (HOWARD-LINDEN-BOUND),SHERIDAN,SHERIDAN (RED LINE),40080,FALSE,FALSE,FALSE,FALSE,FALSE,FALSE,FALSE,FALSE,FALSE,FALSE,"(41.953775, -87.654929)"
30272,S,CHICAGO (FOREST PK-BOUND),CHICAGO,CHICAGO (BLUE LINE),41410,FALSE,FALSE,TRUE,FALSE,FALSE,FALSE,FALSE,FALSE,FALSE,FALSE,"(41.896075, -87.655214)"
30090,N,MERCHANDISE MART (KIMBALL-LINDEN-BOUND),MERCHANDISE MART,MERCHANDISE MART (BROWN & PURPLE LINES),40460,TRUE,FALSE,FALSE,FALSE,TRUE,FALSE,TRUE,FALSE,FALSE,FALSE,"(41.888969, -87.633924)"
30061,S,WESTERN (MIDWAY-BOUND),WESTERN,WESTERN (ORANGE LINE),40310,TRUE,FALSE,FALSE,FALSE,FALSE,FALSE,FALSE,FALSE,FALSE,TRUE,"(41.804546, -87.684019)"
30171,N,O'HARE (TERMINAL ARRIVAL),O'HARE,O'HARE (BLUE LINE),40890,TRUE,FALSE,TRUE,FALSE,FALSE,FALSE,FALSE,FALSE,FALSE,FALSE,"(41.97766526, -87.90422307)"
30245,N,43RD (HARLEM-BOUND),43RD,43RD (GREEN LINE),41270,TRUE,FALSE,FALSE,TRUE,FALSE,FALSE,FALSE,FALSE,FALSE,FALSE,"(41.816462, -87.619021)"
30093,W,RACINE (FOREST PK-BOUND),RACINE,RACINE (BLUE LINE),40470,FALSE,FALSE,TRUE,FALSE,FALSE,FALSE,FALSE,FALSE,FALSE,FALSE,"(41.87592, -87.659458)"
30265,E,CALIFORNIA (63RD-BOUND),CALIFORNIA,CALIFORNIA (GREEN LINE),41360,TRUE,FALSE,FALSE,TRUE,FALSE,FALSE,FALSE,FALSE,FALSE,FALSE,"(41.88422, -87.696234)"
30063,S,DIVISION (FOREST PK-BOUND),DIVISION,DIVISION (BLUE LINE),40320,FALSE,FALSE,TRUE,FALSE,FALSE,FALSE,FALSE,FALSE,FALSE,FALSE,"(41.903355, -87.666496)"
30036,N,SOX-35TH (HOWARD-BOUND),SOX-35TH,SOX-35TH (RED LINE),40190,TRUE,TRUE,FALSE,FALSE,FALSE,FALSE,FALSE,FALSE,FALSE,FALSE,"(41.831191, -87.630636)"
30083,W,CICERO (54TH/CERMAK-BOUND),CICERO,CICERO (PINK LINE),40420,TRUE,FALSE,FALSE,FALSE,FALSE,FALSE,FALSE,FALSE,TRUE,FALSE,"(41.85182, -87.745336)"
30198,S,LOGAN SQUARE (FOREST PK-BOUND),LOGAN SQUARE,LOGAN SQUARE (BLUE LINE),41020,TRUE,FALSE,TRUE,FALSE,FALSE,FALSE,FALSE,FALSE,FALSE,FALSE,"(41.929728, -87.708541)"
30020,N,MORSE (HOWARD-BOUND),MORSE,MORSE (RED LINE),40100,FALSE,TRUE,FALSE,FALSE,FALSE,FALSE,FALSE,FALSE,FALSE,FALSE,"(42.008362, -87.665909)"
30115,N,DAMEN/MILWAUKEE (O'HARE-BOUND),DAMEN,DAMEN (BLUE LINE),40590,FALSE,FALSE,TRUE,FALSE,FALSE,FALSE,FALSE,FALSE,FALSE,FALSE,"(41.909744, -87.677437)"
30156,S,SEDGWICK (LOOP-BOUND),SEDGWICK,SEDGWICK (BROWN & PURPLE LINES),40800,TRUE,FALSE,FALSE,FALSE,TRUE,FALSE,TRUE,FALSE,FALSE,FALSE,"(41.910409, -87.639302)"
30240,S,ADDISON (FOREST PK-BOUND),ADDISON,ADDISON (BLUE LINE),41240,TRUE,FALSE,TRUE,FALSE,FALSE,FALSE,FALSE,FALSE,FALSE,FALSE,"(41.94738, -87.71906)"
30032,E,ASHLAND (LOOP-63RD-BOUND),ASHLAND,ASHLAND (GREEN & PINK LINES),40170,TRUE,FALSE,FALSE,TRUE,FALSE,FALSE,FALSE,FALSE,TRUE,FALSE,"(41.885269, -87.666969)"
30108,S,IRVING PARK (O'HARE BRANCH) (FOREST PK-BOUND),IRVING PARK,IRVING PARK (BLUE LINE),40550,FALSE,FALSE,TRUE,FALSE,FALSE,FALSE,FALSE,FALSE,FALSE,FALSE,"(41.952925, -87.729229)"
30386,N,WILSON (LINDEN-BOUND),WILSON,WILSON (RED & PURPLE LINES),40540,TRUE,FALSE,FALSE,FALSE,FALSE,FALSE,TRUE,FALSE,FALSE,FALSE,"(41.964273, -87.657588)"
30193,N,CERMAK-CHINATOWN (HOWARD-BOUND),CERMAK-CHINATOWN,CERMAK-CHINATOWN (RED LINE),41000,TRUE,TRUE,FALSE,FALSE,FALSE,FALSE,FALSE,FALSE,FALSE,FALSE,"(41.853206, -87.630968)"
30262,W,LASALLE (FOREST PK-BOUND),LASALLE,LASALLE (BLUE LINE),41340,FALSE,FALSE,TRUE,FALSE,FALSE,FALSE,FALSE,FALSE,FALSE,FALSE,"(41.875568, -87.631722)"
30169,N,THORNDALE (HOWARD-BOUND),THORNDALE,THORNDALE (RED LINE),40880,FALSE,TRUE,FALSE,FALSE,FALSE,FALSE,FALSE,FALSE,FALSE,FALSE,"(41.990259, -87.659076)"
30046,N,79TH (HOWARD-BOUND),79TH,79TH (RED LINE),40240,TRUE,TRUE,FALSE,FALSE,FALSE,FALSE,FALSE,FALSE,FALSE,FALSE,"(41.750419, -87.625112)"
30147,N,GRANVILLE (HOWARD-BOUND),GRANVILLE,GRANVILLE (RED LINE),40760,TRUE,TRUE,FALSE,FALSE,FALSE,FALSE,FALSE,FALSE,FALSE,FALSE,"(41.993664, -87.659202)"
30014,N,JACKSON/DEARBORN (O'HARE-BOUND),JACKSON,JACKSON (BLUE LINE),40070,TRUE,FALSE,TRUE,FALSE,FALSE,FALSE,FALSE,FALSE,FALSE,FALSE,"(41.878183, -87.629296)"
30274,S,ADDISON (95TH-BOUND),ADDISON,ADDISON (RED LINE),41420,TRUE,TRUE,FALSE,FALSE,FALSE,FALSE,FALSE,FALSE,FALSE,FALSE,"(41.947428, -87.653626)"
30085,W,CLINTON (FOREST PK-BOUND),CLINTON,CLINTON (BLUE LINE),40430,FALSE,FALSE,TRUE,FALSE,FALSE,FALSE,FALSE,FALSE,FALSE,FALSE,"(41.875539, -87.640984)"
30264,W,OAK PARK (HARLEM-BOUND),OAK PARK,OAK PARK (GREEN LINE),41350,FALSE,FALSE,FALSE,TRUE,FALSE,FALSE,FALSE,FALSE,FALSE,FALSE,"(41.886988, -87.793783)"
30196,S,ROCKWELL (LOOP-BOUND),ROCKWELL,ROCKWELL (BROWN LINE),41010,TRUE,FALSE,FALSE,FALSE,TRUE,FALSE,FALSE,FALSE,FALSE,FALSE,"(41.966115, -87.6941)"
30150,S,LAWRENCE (95TH-BOUND),LAWRENCE,LAWRENCE (RED LINE),40770,FALSE,TRUE,FALSE,FALSE,FALSE,FALSE,FALSE,FALSE,FALSE,FALSE,"(41.969139, -87.658493)"
30054,E,CENTRAL (63RD-BOUND),CENTRAL,CENTRAL (GREEN LINE),40280,TRUE,FALSE,FALSE,TRUE,FALSE,FALSE,FALSE,FALSE,FALSE,FALSE,"(41.887389, -87.76565)"
30292,W,CONSERVATORY (HARLEM-BOUND),CONSERVATORY,CONSERVATORY (GREEN LINE),41670,TRUE,FALSE,FALSE,TRUE,FALSE,FALSE,FALSE,FALSE,FALSE,FALSE,"(41.884904, -87.716523)"
30232,S,WELLINGTON (LOOP-BOUND),WELLINGTON,WELLINGTON (BROWN & PURPLE LINES),41210,TRUE,FALSE,FALSE,FALSE,TRUE,FALSE,TRUE,FALSE,FALSE,FALSE,"(41.936033, -87.653266)"
30078,N,NOYES (LINDEN-BOUND),NOYES,NOYES (PURPLE LINE),40400,FALSE,FALSE,FALSE,FALSE,FALSE,TRUE,TRUE,FALSE,FALSE,FALSE,"(42.058282, -87.683337)"
30157,E,ILLINOIS MEDICAL DISTRICT (O'HARE-BOUND),ILLINOIS MEDICAL DISTRICT,ILLINOIS MEDICAL DISTRICT (BLUE LINE),40810,TRUE,FALSE,TRUE,FALSE,FALSE,FALSE,FALSE,FALSE,FALSE,FALSE,"(41.875706, -87.673932)"
30209,N,47TH (HARLEM-BOUND),47TH,47TH (GREEN LINE),41080,TRUE,FALSE,FALSE,TRUE,FALSE,FALSE,FALSE,FALSE,FALSE,FALSE,"(41.809209, -87.618826)"
30289,N,LAKE (HOWARD-BOUND),LAKE,LAKE (RED LINE),41660,TRUE,TRUE,FALSE,FALSE,FALSE,FALSE,FALSE,FALSE,FALSE,FALSE,"(41.884809, -87.627813)"
30257,N,BELMONT (KIMBALL-LINDEN-BOUND),BELMONT,"BELMONT (RED, BROWN & PURPLE LINES)",41320,TRUE,FALSE,FALSE,FALSE,TRUE,FALSE,TRUE,FALSE,FALSE,FALSE,"(41.939751, -87.65338)"
30228,S,JARVIS (95TH-BOUND),JARVIS,JARVIS (RED LINE),41190,FALSE,TRUE,FALSE,FALSE,FALSE,FALSE,FALSE,FALSE,FALSE,FALSE,"(42.015876, -87.669092)"
30216,S,HALSTED (MIDWAY-BOUND),HALSTED,HALSTED (ORANGE LINE),41130,TRUE,FALSE,FALSE,FALSE,FALSE,FALSE,FALSE,FALSE,FALSE,TRUE,"(41.84678, -87.648088)"
30011,S,DAVIS (HOWARD-LOOP-BOUND),DAVIS,DAVIS (PURPLE LINE),40050,TRUE,FALSE,FALSE,FALSE,FALSE,TRUE,TRUE,FALSE,FALSE,FALSE,"(42.04771, -87.683543)"
30270,S,ROOSEVELT (95TH-BOUND),ROOSEVELT,"ROOSEVELT (RED, ORANGE & GREEN LINES)",41400,TRUE,TRUE,FALSE,FALSE,FALSE,FALSE,FALSE,FALSE,FALSE,FALSE,"(41.867368, -87.627402)"
30233,N,FULLERTON (HOWARD-BOUND),FULLERTON,"FULLERTON (RED, BROWN & PURPLE LINES)",41220,TRUE,TRUE,FALSE,FALSE,FALSE,FALSE,FALSE,FALSE,FALSE,FALSE,"(41.925051, -87.652866)"
30079,S,NOYES (HOWARD-LOOP-BOUND),NOYES,NOYES (PURPLE LINE),40400,FALSE,FALSE,FALSE,FALSE,FALSE,TRUE,TRUE,FALSE,FALSE,FALSE,"(42.058282, -87.683337)"
30137,N,CHICAGO (KIMBALL-LINDEN-BOUND),CHICAGO,CHICAGO (BROWN & PURPLE LINES),40710,TRUE,FALSE,FALSE,FALSE,TRUE,FALSE,TRUE,FALSE,FALSE,FALSE,"(41.89681, -87.635924)"
30261,E,LASALLE (O'HARE-BOUND),LASALLE,LASALLE (BLUE LINE),41340,FALSE,FALSE,TRUE,FALSE,FALSE,FALSE,FALSE,FALSE,FALSE,FALSE,"(41.875568, -87.631722)"
30211,N,MONROE (HOWARD-BOUND),MONROE,MONROE (RED LINE),41090,FALSE,TRUE,FALSE,FALSE,FALSE,FALSE,FALSE,FALSE,FALSE,FALSE,"(41.880745, -87.627696)"
30291,E,CONSERVATORY (63RD-BOUND),CONSERVATORY,CONSERVATORY (GREEN LINE),41670,TRUE,FALSE,FALSE,TRUE,FALSE,FALSE,FALSE,FALSE,FALSE,FALSE,"(41.884904, -87.716523)"
30225,N,KEDZIE (KIMBALL-BOUND),KEDZIE,KEDZIE (BROWN LINE),41180,TRUE,FALSE,FALSE,FALSE,TRUE,FALSE,FALSE,FALSE,FALSE,FALSE,"(41.965996, -87.708821)"
30024,N,51ST (HARLEM-BOUND),51ST,51ST (GREEN LINE),40130,TRUE,FALSE,FALSE,TRUE,FALSE,FALSE,FALSE,FALSE,FALSE,FALSE,"(41.80209, -87.618487)"
30099,N,GARFIELD (HARLEM-BOUND),GARFIELD,GARFIELD (GREEN LINE),40510,TRUE,FALSE,FALSE,TRUE,FALSE,FALSE,FALSE,FALSE,FALSE,FALSE,"(41.795172, -87.618327)"
30206,S,ASHLAND (MIDWAY-BOUND),ASHLAND,ASHLAND (ORANGE LINE),41060,TRUE,FALSE,FALSE,FALSE,FALSE,FALSE,FALSE,FALSE,FALSE,TRUE,"(41.839234, -87.665317)"
30064,N,GRAND/STATE (HOWARD-BOUND),GRAND,GRAND (RED LINE),40330,TRUE,TRUE,FALSE,FALSE,FALSE,FALSE,FALSE,FALSE,FALSE,FALSE,"(41.891665, -87.628021)"
30381,N,CERMAK-MCCORMICK PLACE (HARLEM-BOUND),CERMAK-MCCORMICK PLACE,CERMAK-MCCORMICK PLACE (GREEN LINE),41690,TRUE,FALSE,FALSE,TRUE,FALSE,FALSE,FALSE,FALSE,FALSE,FALSE,"(41.853115, -87.626402)"
30100,S,GARFIELD (63RD-BOUND),GARFIELD,GARFIELD (GREEN LINE),40510,TRUE,FALSE,FALSE,TRUE,FALSE,FALSE,FALSE,FALSE,FALSE,FALSE,"(41.795172, -87.618327)"
30200,W,POLK (54TH/CERMAK-BOUND),POLK,POLK (PINK LINE),41030,TRUE,FALSE,FALSE,FALSE,FALSE,FALSE,FALSE,FALSE,TRUE,FALSE,"(41.871551, -87.66953)"
30018,N,DAMEN (KIMBALL-BOUND),DAMEN,DAMEN (BROWN LINE),40090,TRUE,FALSE,FALSE,FALSE,TRUE,FALSE,FALSE,FALSE,FALSE,FALSE,"(41.966286, -87.678639)"
30029,W,PULASKI (54TH/CERMAK-BOUND),PULASKI,PULASKI (PINK LINE),40150,TRUE,FALSE,FALSE,FALSE,FALSE,FALSE,FALSE,FALSE,TRUE,FALSE,"(41.853732, -87.724311)"
30022,N,35TH/ARCHER (LOOP-BOUND),35TH/ARCHER,35TH/ARCHER (ORANGE LINE),40120,TRUE,FALSE,FALSE,FALSE,FALSE,FALSE,FALSE,FALSE,FALSE,TRUE,"(41.829353, -87.680622)"
30164,S,SOUTH BLVD (HOWARD-LOOP-BOUND),SOUTH BOULEVARD,SOUTH BOULEVARD (PURPLE LINE),40840,FALSE,FALSE,FALSE,FALSE,FALSE,TRUE,TRUE,FALSE,FALSE,FALSE,"(42.027612, -87.678329)"
30052,N,MAIN (LINDEN-BOUND),MAIN,MAIN (PURPLE LINE),40270,FALSE,FALSE,FALSE,FALSE,FALSE,TRUE,TRUE,FALSE,FALSE,FALSE,"(42.033456, -87.679538)"
30106,S,WILSON (95TH-BOUND),WILSON,WILSON (RED & PURPLE LINES),40540,TRUE,TRUE,FALSE,FALSE,FALSE,FALSE,FALSE,FALSE,FALSE,FALSE,"(41.964273, -87.657588)"
30110,S,JACKSON/STATE (95TH-BOUND),JACKSON,JACKSON (RED LINE),40560,TRUE,TRUE,FALSE,FALSE,FALSE,FALSE,FALSE,FALSE,FALSE,FALSE,"(41.878153, -87.627596)"
30273,N,ADDISON (HOWARD-BOUND),ADDISON,ADDISON (RED LINE),41420,TRUE,TRUE,FALSE,FALSE,FALSE,FALSE,FALSE,FALSE,FALSE,FALSE,"(41.947428, -87.653626)"
30229,N,ARGYLE (HOWARD-BOUND),ARGYLE,ARGYLE (RED LINE),41200,FALSE,TRUE,FALSE,FALSE,FALSE,FALSE,FALSE,FALSE,FALSE,FALSE,"(41.973453, -87.65853)"
30165,E,H.W. LIBRARY (OUTER LOOP),HAROLD WASHINGTON LIBRARY-STATE/VAN BUREN,"HAROLD WASHINGTON LIBRARY-STATE/VAN BUREN (BROWN, ORANGE, PURPLE & PINK LINES)",40850,TRUE,FALSE,FALSE,FALSE,TRUE,FALSE,FALSE,FALSE,FALSE,FALSE,"(41.876862, -87.628196)"
30016,N,SHERIDAN (HOWARD-BOUND),SHERIDAN,SHERIDAN (RED LINE),40080,FALSE,TRUE,FALSE,FALSE,FALSE,FALSE,FALSE,FALSE,FALSE,FALSE,"(41.953775, -87.654929)"
30001,E,AUSTIN (O'HARE-BOUND),AUSTIN,AUSTIN (BLUE LINE),40010,FALSE,FALSE,TRUE,FALSE,FALSE,FALSE,FALSE,FALSE,FALSE,FALSE,"(41.870851, -87.776812)"
30107,N,IRVING PARK (O'HARE BRANCH) (O'HARE-BOUND),IRVING PARK,IRVING PARK (BLUE LINE),40550,FALSE,FALSE,TRUE,FALSE,FALSE,FALSE,FALSE,FALSE,FALSE,FALSE,"(41.952925, -87.729229)"
30072,N,WASHINGTON (O'HARE-BOUND),WASHINGTON,WASHINGTON (BLUE LINE),40370,FALSE,FALSE,TRUE,FALSE,FALSE,FALSE,FALSE,FALSE,FALSE,FALSE,"(41.883164, -87.62944)"
30055,W,CENTRAL (HARLEM-BOUND),CENTRAL,CENTRAL (GREEN LINE),40280,TRUE,FALSE,FALSE,TRUE,FALSE,FALSE,FALSE,FALSE,FALSE,FALSE,"(41.887389, -87.76565)"
30048,E,KEDZIE-HOMAN (O'HARE-BOUND),KEDZIE-HOMAN,KEDZIE-HOMAN (BLUE LINE),40250,TRUE,FALSE,TRUE,FALSE,FALSE,FALSE,FALSE,FALSE,FALSE,FALSE,"(41.874341, -87.70604)"
30385,S,WILSON (LOOP-BOUND),WILSON,WILSON (RED & PURPLE LINES),40540,TRUE,FALSE,FALSE,FALSE,FALSE,FALSE,TRUE,FALSE,FALSE,FALSE,"(41.964273, -87.657588)"
30177,N,63RD (HOWARD-BOUND),63RD,63RD (RED LINE),40910,TRUE,TRUE,FALSE,FALSE,FALSE,FALSE,FALSE,FALSE,FALSE,FALSE,"(41.780536, -87.630952)"
30166,W,H.W. LIBRARY (INNER LOOP),HAROLD WASHINGTON LIBRARY-STATE/VAN BUREN,"HAROLD WASHINGTON LIBRARY-STATE/VAN BUREN (BROWN, ORANGE, PURPLE & PINK LINES)",40850,TRUE,FALSE,FALSE,FALSE,FALSE,FALSE,TRUE,FALSE,TRUE,TRUE,"(41.876862, -87.628196)"
30219,N,KEDZIE (LOOP-BOUND),KEDZIE,KEDZIE (ORANGE LINE),41150,TRUE,FALSE,FALSE,FALSE,FALSE,FALSE,FALSE,FALSE,FALSE,TRUE,"(41.804236, -87.704406)"
30135,E,LARAMIE (63RD-BOUND),LARAMIE,LARAMIE (GREEN LINE),40700,TRUE,FALSE,FALSE,TRUE,FALSE,FALSE,FALSE,FALSE,FALSE,FALSE,"(41.887163, -87.754986)"
30276,S,87TH (95TH-BOUND),87TH,87TH (RED LINE),41430,TRUE,TRUE,FALSE,FALSE,FALSE,FALSE,FALSE,FALSE,FALSE,FALSE,"(41.735372, -87.624717)"
30002,W,AUSTIN (FOREST PK-BOUND),AUSTIN,AUSTIN (BLUE LINE),40010,FALSE,FALSE,TRUE,FALSE,FALSE,FALSE,FALSE,FALSE,FALSE,FALSE,"(41.870851, -87.776812)"
30043,W,WESTERN (FOREST PK BRANCH) (FOREST PK-BOUND),WESTERN,WESTERN (BLUE LINE - FOREST PARK BRANCH),40220,FALSE,FALSE,TRUE,FALSE,FALSE,FALSE,FALSE,FALSE,FALSE,FALSE,"(41.875478, -87.688436)"
30283,N,WESTERN (KIMBALL-BOUND),WESTERN,WESTERN (BROWN LINE),41480,TRUE,FALSE,FALSE,FALSE,TRUE,FALSE,FALSE,FALSE,FALSE,FALSE,"(41.966163, -87.688502)"
30111,N,CALIFORNIA (O'HARE-BOUND),CALIFORNIA,CALIFORNIA (BLUE LINE),40570,FALSE,FALSE,TRUE,FALSE,FALSE,FALSE,FALSE,FALSE,FALSE,FALSE,"(41.921939, -87.69689)"
30076,E,FOREST PARK (O'HARE-BOUND),FOREST PARK,FOREST PARK (BLUE LINE),40390,TRUE,FALSE,TRUE,FALSE,FALSE,FALSE,FALSE,FALSE,FALSE,FALSE,"(41.874257, -87.817318)"
30383,N,WASHINGTON/WABASH (OUTER LOOP),WASHINGTON/WABASH,"WASHINGTON/WABASH (BROWN, GREEN, ORANGE, PURPLE & PINK LINES)",41700,TRUE,FALSE,FALSE,TRUE,TRUE,FALSE,FALSE,FALSE,FALSE,FALSE,"(41.88322, -87.626189)"
30053,S,MAIN (HOWARD-LOOP-BOUND),MAIN,MAIN (PURPLE LINE),40270,FALSE,FALSE,FALSE,FALSE,FALSE,TRUE,TRUE,FALSE,FALSE,FALSE,"(42.033456, -87.679538)"
30159,N,ROSEMONT (O'HARE-BOUND),ROSEMONT,ROSEMONT (BLUE LINE),40820,TRUE,FALSE,TRUE,FALSE,FALSE,FALSE,FALSE,FALSE,FALSE,FALSE,"(41.983507, -87.859388)"
30132,S,ADAMS/WABASH (INNER LOOP),ADAMS/WABASH,"ADAMS/WABASH (BROWN, GREEN, ORANGE, PINK & PURPLE LINES)",40680,FALSE,FALSE,FALSE,TRUE,FALSE,FALSE,TRUE,FALSE,TRUE,TRUE,"(41.879507, -87.626037)"
30194,S,CERMAK-CHINATOWN (95TH-BOUND),CERMAK-CHINATOWN,CERMAK-CHINATOWN (RED LINE),41000,TRUE,TRUE,FALSE,FALSE,FALSE,FALSE,FALSE,FALSE,FALSE,FALSE,"(41.853206, -87.630968)"
30025,S,51ST (63RD-BOUND),51ST,51ST (GREEN LINE),40130,TRUE,FALSE,FALSE,TRUE,FALSE,FALSE,FALSE,FALSE,FALSE,FALSE,"(41.80209, -87.618487)"
30067,S,BERWYN (95TH-BOUND),BERWYN,BERWYN (RED LINE),40340,FALSE,TRUE,FALSE,FALSE,FALSE,FALSE,FALSE,FALSE,FALSE,FALSE,"(41.977984, -87.658668)"
30145,N,HARLEM (O'HARE BRANCH) (O'HARE-BOUND),HARLEM,HARLEM (BLUE LINE - O'HARE BRANCH),40750,TRUE,FALSE,TRUE,FALSE,FALSE,FALSE,FALSE,FALSE,FALSE,FALSE,"(41.98227, -87.8089)"
30012,N,BELMONT (O'HARE BRANCH) (O'HARE-BOUND),BELMONT,BELMONT (BLUE LINE),40060,FALSE,FALSE,TRUE,FALSE,FALSE,FALSE,FALSE,FALSE,FALSE,FALSE,"(41.938132, -87.712359)"
30199,E,POLK (LOOP-BOUND),POLK,POLK (PINK LINE),41030,TRUE,FALSE,FALSE,FALSE,FALSE,FALSE,FALSE,FALSE,TRUE,FALSE,"(41.871551, -87.66953)"
30049,W,KEDZIE-HOMAN (FOREST PK-BOUND),KEDZIE-HOMAN,KEDZIE-HOMAN (BLUE LINE),40250,TRUE,FALSE,TRUE,FALSE,FALSE,FALSE,FALSE,FALSE,FALSE,FALSE,"(41.874341, -87.70604)"
30121,N,CLARK/DIVISION (HOWARD-BOUND),CLARK/DIVISION,CLARK/DIVISION (RED LINE),40630,TRUE,TRUE,FALSE,FALSE,FALSE,FALSE,FALSE,FALSE,FALSE,FALSE,"(41.90392, -87.631412)"
30059,S,INDIANA (63RD-BOUND),INDIANA,INDIANA (GREEN LINE),40300,TRUE,FALSE,FALSE,TRUE,FALSE,FALSE,FALSE,FALSE,FALSE,FALSE,"(41.821732, -87.621371)"
30117,E,KOSTNER (LOOP-BOUND),KOSTNER,KOSTNER (PINK LINE),40600,TRUE,FALSE,FALSE,FALSE,FALSE,FALSE,FALSE,FALSE,TRUE,FALSE,"(41.853751, -87.733258)"
30226,S,KEDZIE (LOOP-BOUND),KEDZIE,KEDZIE (BROWN LINE),41180,TRUE,FALSE,FALSE,FALSE,TRUE,FALSE,FALSE,FALSE,FALSE,FALSE,"(41.965996, -87.708821)"
30027,S,DEMPSTER-SKOKIE (HOWARD-BOUND),DEMPSTER-SKOKIE,DEMPSTER-SKOKIE  (YELLOW LINE),40140,TRUE,FALSE,FALSE,FALSE,FALSE,FALSE,FALSE,TRUE,FALSE,FALSE,"(42.038951, -87.751919)"
30296,W,MORGAN (HARLEM-54TH/CERMAK-BOUND),MORGAN,MORGAN (GREEN & PINK LINES),41510,TRUE,FALSE,FALSE,TRUE,FALSE,FALSE,FALSE,FALSE,TRUE,FALSE,"(41.885586, -87.652193)"
30170,S,THORNDALE (95TH-BOUND),THORNDALE,THORNDALE (RED LINE),40880,FALSE,TRUE,FALSE,FALSE,FALSE,FALSE,FALSE,FALSE,FALSE,FALSE,"(41.990259, -87.659076)"
30187,E,CICERO (O'HARE-BOUND),CICERO,CICERO (BLUE LINE),40970,FALSE,FALSE,TRUE,FALSE,FALSE,FALSE,FALSE,FALSE,FALSE,FALSE,"(41.871574, -87.745154)"
30297,N,OAKTON-SKOKIE (DEMPSTER-SKOKIE-BOUND),OAKTON-SKOKIE,OAKTON-SKOKIE (YELLOW LINE),41680,TRUE,FALSE,FALSE,FALSE,FALSE,FALSE,FALSE,TRUE,FALSE,FALSE,"(42.02624348, -87.74722084)"
30138,S,CHICAGO (LOOP-BOUND),CHICAGO,CHICAGO (BROWN & PURPLE LINES),40710,TRUE,FALSE,FALSE,FALSE,TRUE,FALSE,TRUE,FALSE,FALSE,FALSE,"(41.89681, -87.635924)"
30246,S,43RD (63RD-BOUND),43RD,43RD (GREEN LINE),41270,TRUE,FALSE,FALSE,TRUE,FALSE,FALSE,FALSE,FALSE,FALSE,FALSE,"(41.816462, -87.619021)"
30028,E,PULASKI (LOOP-BOUND),PULASKI,PULASKI (PINK LINE),40150,TRUE,FALSE,FALSE,FALSE,FALSE,FALSE,FALSE,FALSE,TRUE,FALSE,"(41.853732, -87.724311)"
30033,W,ASHLAND (HARLEM-54TH/CERMAK-BOUND),ASHLAND,ASHLAND (GREEN & PINK LINES),40170,TRUE,FALSE,FALSE,TRUE,FALSE,FALSE,FALSE,FALSE,TRUE,FALSE,"(41.885269, -87.666969)"
30140,W,COTTAGE GROVE (HARLEM-BOUND),COTTAGE GROVE,COTTAGE GROVE (GREEN LINE),40720,TRUE,FALSE,FALSE,TRUE,FALSE,FALSE,FALSE,FALSE,FALSE,FALSE,"(41.780309, -87.605857)"
30037,S,SOX-35TH (95TH-BOUND),SOX-35TH,SOX-35TH (RED LINE),40190,TRUE,TRUE,FALSE,FALSE,FALSE,FALSE,FALSE,FALSE,FALSE,FALSE,"(41.831191, -87.630636)"
30182,S,MIDWAY (ARRIVAL),MIDWAY,MIDWAY (ORANGE LINE),40930,TRUE,FALSE,FALSE,FALSE,FALSE,FALSE,FALSE,FALSE,FALSE,TRUE,"(41.78661, -87.737875)"
30116,S,DAMEN/MILWAUKEE (FOREST PK-BOUND),DAMEN,DAMEN (BLUE LINE),40590,FALSE,FALSE,TRUE,FALSE,FALSE,FALSE,FALSE,FALSE,FALSE,FALSE,"(41.909744, -87.677437)"
30215,N,HALSTED (LOOP-BOUND),HALSTED,HALSTED (ORANGE LINE),41130,TRUE,FALSE,FALSE,FALSE,FALSE,FALSE,FALSE,FALSE,FALSE,TRUE,"(41.84678, -87.648088)"
30212,S,MONROE (95TH-BOUND),MONROE,MONROE (RED LINE),41090,FALSE,TRUE,FALSE,FALSE,FALSE,FALSE,FALSE,FALSE,FALSE,FALSE,"(41.880745, -87.627696)"
30075,W,CLARK/LAKE (OUTER LOOP),CLARK/LAKE,"CLARK/LAKE (BLUE, BROWN, GREEN, ORANGE, PURPLE & PINK LINES)",40380,TRUE,FALSE,FALSE,TRUE,TRUE,FALSE,FALSE,FALSE,FALSE,FALSE,"(41.885737, -87.630886)"
30241,N,CENTRAL (LINDEN-BOUND),CENTRAL,CENTRAL (PURPLE LINE),41250,FALSE,FALSE,FALSE,FALSE,FALSE,TRUE,TRUE,FALSE,FALSE,FALSE,"(42.063987, -87.685617)"
30005,E,PULASKI (63RD-BOUND),PULASKI,PULASKI (GREEN LINE),40030,TRUE,FALSE,FALSE,TRUE,FALSE,FALSE,FALSE,FALSE,FALSE,FALSE,"(41.885412, -87.725404)"
30120,W,RIDGELAND (HARLEM-BOUND),RIDGELAND,RIDGELAND (GREEN LINE),40610,FALSE,FALSE,FALSE,TRUE,FALSE,FALSE,FALSE,FALSE,FALSE,FALSE,"(41.887159, -87.783661)"
30176,S,HOWARD (TERMINAL ARRIVAL),HOWARD,"HOWARD (RED, PURPLE & YELLOW LINES)",40900,TRUE,FALSE,FALSE,FALSE,FALSE,TRUE,TRUE,TRUE,FALSE,FALSE,"(42.019063, -87.672892)"
30204,S,LINDEN (HOWARD-LOOP-BOUND),LINDEN,LINDEN (PURPLE LINE),41050,TRUE,FALSE,FALSE,FALSE,FALSE,TRUE,TRUE,FALSE,FALSE,FALSE,"(42.073153, -87.69073)"
30010,N,DAVIS (LINDEN-BOUND),DAVIS,DAVIS (PURPLE LINE),40050,TRUE,FALSE,FALSE,FALSE,FALSE,TRUE,TRUE,FALSE,FALSE,FALSE,"(42.04771, -87.683543)"
30223,N,GARFIELD (HOWARD-BOUND),GARFIELD,GARFIELD (RED LINE),41170,TRUE,TRUE,FALSE,FALSE,FALSE,FALSE,FALSE,FALSE,FALSE,FALSE,"(41.79542, -87.631157)"
30073,S,WASHINGTON (FOREST PK-BOUND),WASHINGTON,WASHINGTON (BLUE LINE),40370,FALSE,FALSE,TRUE,FALSE,FALSE,FALSE,FALSE,FALSE,FALSE,FALSE,"(41.883164, -87.62944)"
30126,S,NORTH/CLYBOURN (95TH-BOUND),NORTH/CLYBOURN,NORTH/CLYBOURN (RED LINE),40650,FALSE,TRUE,FALSE,FALSE,FALSE,FALSE,FALSE,FALSE,FALSE,FALSE,"(41.910655, -87.649177)"
30065,S,GRAND/STATE (95TH-BOUND),GRAND,GRAND (RED LINE),40330,TRUE,TRUE,FALSE,FALSE,FALSE,FALSE,FALSE,FALSE,FALSE,FALSE,"(41.891665, -87.628021)"
30105,N,WILSON (HOWARD-BOUND),WILSON,WILSON (RED & PURPLE LINES),40540,TRUE,TRUE,FALSE,FALSE,FALSE,FALSE,FALSE,FALSE,FALSE,FALSE,"(41.964273, -87.657588)"
30035,W,OAK PARK (FOREST PK-BOUND),OAK PARK,OAK PARK (BLUE LINE),40180,FALSE,FALSE,TRUE,FALSE,FALSE,FALSE,FALSE,FALSE,FALSE,FALSE,"(41.872108, -87.791602)"
30023,S,35TH/ARCHER (MIDWAY-BOUND),35TH/ARCHER,35TH/ARCHER (ORANGE LINE),40120,TRUE,FALSE,FALSE,FALSE,FALSE,FALSE,FALSE,FALSE,FALSE,TRUE,"(41.829353, -87.680622)"
30163,N,SOUTH BLVD (LINDEN-BOUND),SOUTH BOULEVARD,SOUTH BOULEVARD (PURPLE LINE),40840,FALSE,FALSE,FALSE,FALSE,FALSE,TRUE,TRUE,FALSE,FALSE,FALSE,"(42.027612, -87.678329)"
30006,W,PULASKI (HARLEM-BOUND),PULASKI,PULASKI (GREEN LINE),40030,TRUE,FALSE,FALSE,TRUE,FALSE,FALSE,FALSE,FALSE,FALSE,FALSE,"(41.885412, -87.725404)"
30188,W,CICERO (FOREST PK-BOUND),CICERO,CICERO (BLUE LINE),40970,FALSE,FALSE,TRUE,FALSE,FALSE,FALSE,FALSE,FALSE,FALSE,FALSE,"(41.871574, -87.745154)"
30109,N,JACKSON/STATE (HOWARD-BOUND),JACKSON,JACKSON (RED LINE),40560,TRUE,TRUE,FALSE,FALSE,FALSE,FALSE,FALSE,FALSE,FALSE,FALSE,"(41.878153, -87.627596)"
30230,S,ARGYLE (95TH-BOUND),ARGYLE,ARGYLE (RED LINE),41200,FALSE,TRUE,FALSE,FALSE,FALSE,FALSE,FALSE,FALSE,FALSE,FALSE,"(41.973453, -87.65853)"
30281,N,IRVING PARK (KIMBALL-BOUND),IRVING PARK,IRVING PARK (BROWN LINE),41460,TRUE,FALSE,FALSE,FALSE,TRUE,FALSE,FALSE,FALSE,FALSE,FALSE,"(41.954521, -87.674868)"
30080,N,ROOSEVELT (LOOP-HARLEM-BOUND),ROOSEVELT,"ROOSEVELT (RED, ORANGE & GREEN LINES)",41400,TRUE,FALSE,FALSE,TRUE,FALSE,FALSE,FALSE,FALSE,FALSE,TRUE,"(41.867405, -87.62659)"
30181,N,MIDWAY (LOOP-BOUND),MIDWAY,MIDWAY (ORANGE LINE),40930,TRUE,FALSE,FALSE,FALSE,FALSE,FALSE,FALSE,FALSE,FALSE,TRUE,"(41.78661, -87.737875)"
30026,N,DEMPSTER-SKOKIE (ARRIVAL),DEMPSTER-SKOKIE,DEMPSTER-SKOKIE  (YELLOW LINE),40140,TRUE,FALSE,FALSE,FALSE,FALSE,FALSE,FALSE,TRUE,FALSE,FALSE,"(42.038951, -87.751919)"
30167,N,FRANCISCO (KIMBALL-BOUND),FRANCISCO,FRANCISCO (BROWN LINE),40870,TRUE,FALSE,FALSE,FALSE,TRUE,FALSE,FALSE,FALSE,FALSE,FALSE,"(41.966046, -87.701644)"
30030,E,LASALLE/VAN BUREN (OUTER LOOP),LASALLE/VAN BUREN,"LASALLE/VAN BUREN (BROWN, ORANGE, PURPLE & PINK LINES)",40160,FALSE,FALSE,FALSE,FALSE,TRUE,FALSE,FALSE,FALSE,FALSE,FALSE,"(41.8768, -87.631739)"
30146,S,HARLEM (O'HARE BRANCH) (FOREST PK-BOUND),HARLEM,HARLEM (BLUE LINE - O'HARE BRANCH),40750,TRUE,FALSE,TRUE,FALSE,FALSE,FALSE,FALSE,FALSE,FALSE,FALSE,"(41.98227, -87.8089)"
30013,S,BELMONT (O'HARE BRANCH) (FOREST PK-BOUND),BELMONT,BELMONT (BLUE LINE),40060,FALSE,FALSE,TRUE,FALSE,FALSE,FALSE,FALSE,FALSE,FALSE,FALSE,"(41.938132, -87.712359)"
30086,E,CALIFORNIA (LOOP-BOUND),CALIFORNIA,CALIFORNIA (PINK LINE),40440,TRUE,FALSE,FALSE,FALSE,FALSE,FALSE,FALSE,FALSE,TRUE,FALSE,"(41.854109, -87.694774)"
30143,E,WESTERN (LOOP-BOUND),WESTERN,WESTERN (PINK LINE),40740,TRUE,FALSE,FALSE,FALSE,FALSE,FALSE,FALSE,FALSE,TRUE,FALSE,"(41.854225, -87.685129)"
30192,S,69TH (95TH-BOUND),69TH,69TH (RED LINE),40990,TRUE,TRUE,FALSE,FALSE,FALSE,FALSE,FALSE,FALSE,FALSE,FALSE,"(41.768367, -87.625724)"
30141,N,WASHINGTON/WELLS (INNER LOOP),WASHINGTON/WELLS,"WASHINGTON/WELLS (BROWN, ORANGE, PURPLE & PINK LINES)",40730,TRUE,FALSE,FALSE,FALSE,FALSE,FALSE,TRUE,FALSE,TRUE,TRUE,"(41.882695, -87.63378)"
30286,S,HARRISON (95TH-BOUND),HARRISON,HARRISON (RED LINE),41490,FALSE,TRUE,FALSE,FALSE,FALSE,FALSE,FALSE,FALSE,FALSE,FALSE,"(41.874039, -87.627479)"
30221,E,CLINTON (LOOP-63RD-BOUND),CLINTON,CLINTON (GREEN & PINK LINES),41160,TRUE,FALSE,FALSE,TRUE,FALSE,FALSE,FALSE,FALSE,TRUE,FALSE,"(41.885678, -87.641782)"
30294,S,SHERIDAN (LOOP-BOUND),SHERIDAN,SHERIDAN (RED LINE),40080,FALSE,FALSE,FALSE,FALSE,FALSE,FALSE,FALSE,FALSE,FALSE,FALSE,"(41.953775, -87.654929)"
30258,S,BELMONT (LOOP-BOUND),BELMONT,"BELMONT (RED, BROWN & PURPLE LINES)",41320,TRUE,FALSE,FALSE,FALSE,TRUE,FALSE,TRUE,FALSE,FALSE,FALSE,"(41.939751, -87.65338)"
30242,S,CENTRAL (HOWARD-LOOP-BOUND),CENTRAL,CENTRAL (PURPLE LINE),41250,FALSE,FALSE,FALSE,FALSE,FALSE,TRUE,TRUE,FALSE,FALSE,FALSE,"(42.063987, -87.685617)"
30203,N,LINDEN (LINDEN-BOUND),LINDEN,LINDEN (PURPLE LINE),41050,TRUE,FALSE,FALSE,FALSE,FALSE,TRUE,TRUE,FALSE,FALSE,FALSE,"(42.073153, -87.69073)"
30220,S,KEDZIE (MIDWAY-BOUND),KEDZIE,KEDZIE (ORANGE LINE),41150,TRUE,FALSE,FALSE,FALSE,FALSE,FALSE,FALSE,FALSE,FALSE,TRUE,"(41.804236, -87.704406)"
30250,S,KIMBALL (LOOP-BOUND),KIMBALL,KIMBALL (BROWN LINE),41290,TRUE,FALSE,FALSE,FALSE,TRUE,FALSE,FALSE,FALSE,FALSE,FALSE,"(41.967901, -87.713065)"
30178,S,63RD (95TH-BOUND),63RD,63RD (RED LINE),40910,TRUE,TRUE,FALSE,FALSE,FALSE,FALSE,FALSE,FALSE,FALSE,FALSE,"(41.780536, -87.630952)"
30234,S,FULLERTON (95TH-BOUND),FULLERTON,"FULLERTON (RED, BROWN & PURPLE LINES)",41220,TRUE,TRUE,FALSE,FALSE,FALSE,FALSE,FALSE,FALSE,FALSE,FALSE,"(41.925051, -87.652866)"
30278,S,ADDISON (LOOP-BOUND),ADDISON,ADDISON (BROWN LINE),41440,TRUE,FALSE,FALSE,FALSE,TRUE,FALSE,FALSE,FALSE,FALSE,FALSE,"(41.947028, -87.674642)"
30174,S,HOWARD (95TH-BOUND),HOWARD,"HOWARD (RED, PURPLE & YELLOW LINES)",40900,TRUE,TRUE,FALSE,FALSE,FALSE,FALSE,FALSE,FALSE,FALSE,FALSE,"(42.019063, -87.672892)"
30238,S,47TH (95TH-BOUND),47TH,47TH (RED LINE),41230,TRUE,TRUE,FALSE,FALSE,FALSE,FALSE,FALSE,FALSE,FALSE,FALSE,"(41.810318, -87.63094)"
30382,S,CERMAK-MCCORMICK PLACE (63RD-BOUND),CERMAK-MCCORMICK PLACE,CERMAK-MCCORMICK PLACE (GREEN LINE),41690,TRUE,FALSE,FALSE,TRUE,FALSE,FALSE,FALSE,FALSE,FALSE,FALSE,"(41.853115, -87.626402)"
30208,W,KEDZIE (HARLEM-BOUND),KEDZIE,KEDZIE (GREEN LINE),41070,TRUE,FALSE,FALSE,TRUE,FALSE,FALSE,FALSE,FALSE,FALSE,FALSE,"(41.884321, -87.706155)"
30189,E,HARLEM (FOREST PK BRANCH) (O'HARE-BOUND),HARLEM,HARLEM (BLUE LINE - FOREST PARK BRANCH),40980,FALSE,FALSE,TRUE,FALSE,FALSE,FALSE,FALSE,FALSE,FALSE,FALSE,"(41.87349, -87.806961)"
30056,E,ASHLAND/63RD (HARLEM-BOUND),ASHLAND/63RD,ASHLAND/63RD (GREEN LINE),40290,TRUE,FALSE,FALSE,TRUE,FALSE,FALSE,FALSE,FALSE,FALSE,FALSE,"(41.77886, -87.663766)"
30119,E,RIDGELAND (63RD-BOUND),RIDGELAND,RIDGELAND (GREEN LINE),40610,FALSE,FALSE,FALSE,TRUE,FALSE,FALSE,FALSE,FALSE,FALSE,FALSE,"(41.887159, -87.783661)"
30298,S,OAKTON-SKOKIE (HOWARD-BOUND),OAKTON-SKOKIE,OAKTON-SKOKIE (YELLOW LINE),41680,TRUE,FALSE,FALSE,FALSE,FALSE,FALSE,FALSE,TRUE,FALSE,FALSE,"(42.02624348, -87.74722084)"
30139,E,COTTAGE GROVE (TERMINAL ARRIVAL),COTTAGE GROVE,COTTAGE GROVE (GREEN LINE),40720,TRUE,FALSE,FALSE,TRUE,FALSE,FALSE,FALSE,FALSE,FALSE,FALSE,"(41.780309, -87.605857)"
30122,S,CLARK/DIVISION (95TH-BOUND),CLARK/DIVISION,CLARK/DIVISION (RED LINE),40630,TRUE,TRUE,FALSE,FALSE,FALSE,FALSE,FALSE,FALSE,FALSE,FALSE,"(41.90392, -87.631412)"
30251,N,LOYOLA (HOWARD-BOUND),LOYOLA,LOYOLA (RED LINE),41300,TRUE,TRUE,FALSE,FALSE,FALSE,FALSE,FALSE,FALSE,FALSE,FALSE,"(42.001073, -87.661061)"
30295,E,MORGAN (LOOP-63RD-BOUND),MORGAN,MORGAN (GREEN & PINK LINES),41510,TRUE,FALSE,FALSE,TRUE,FALSE,FALSE,FALSE,FALSE,TRUE,FALSE,"(41.885586, -87.652193)"
30019,S,DAMEN (LOOP-BOUND),DAMEN,DAMEN (BROWN LINE),40090,TRUE,FALSE,FALSE,FALSE,TRUE,FALSE,FALSE,FALSE,FALSE,FALSE,"(41.966286, -87.678639)"
30205,N,ASHLAND (LOOP-BOUND),ASHLAND,ASHLAND (ORANGE LINE),41060,TRUE,FALSE,FALSE,FALSE,FALSE,FALSE,FALSE,FALSE,FALSE,TRUE,"(41.839234, -87.665317)"
30131,N,ADAMS/WABASH (OUTER LOOP),ADAMS/WABASH,"ADAMS/WABASH (BROWN, GREEN, ORANGE, PINK & PURPLE LINES)",40680,FALSE,FALSE,FALSE,TRUE,TRUE,FALSE,FALSE,FALSE,FALSE,FALSE,"(41.879507, -87.626037)"
30160,S,ROSEMONT (FOREST PK-BOUND),ROSEMONT,ROSEMONT (BLUE LINE),40820,TRUE,FALSE,TRUE,FALSE,FALSE,FALSE,FALSE,FALSE,FALSE,FALSE,"(41.983507, -87.859388)"
30058,N,INDIANA (HARLEM-BOUND),INDIANA,INDIANA (GREEN LINE),40300,TRUE,FALSE,FALSE,TRUE,FALSE,FALSE,FALSE,FALSE,FALSE,FALSE,"(41.821732, -87.621371)"
30118,W,KOSTNER (54TH/CERMAK-BOUND),KOSTNER,KOSTNER (PINK LINE),40600,TRUE,FALSE,FALSE,FALSE,FALSE,FALSE,FALSE,FALSE,TRUE,FALSE,"(41.853751, -87.733258)"
30066,N,BERWYN (HOWARD-BOUND),BERWYN,BERWYN (RED LINE),40340,FALSE,TRUE,FALSE,FALSE,FALSE,FALSE,FALSE,FALSE,FALSE,FALSE,"(41.977984, -87.658668)"
30103,N,DIVERSEY (KIMBALL-LINDEN-BOUND),DIVERSEY,DIVERSEY (BROWN & PURPLE LINES),40530,TRUE,FALSE,FALSE,FALSE,TRUE,FALSE,TRUE,FALSE,FALSE,FALSE,"(41.932732, -87.653131)"
30247,N,JEFFERSON PARK (O'HARE-BOUND),JEFFERSON PARK,JEFFERSON PARK (BLUE LINE),41280,TRUE,FALSE,TRUE,FALSE,FALSE,FALSE,FALSE,FALSE,FALSE,FALSE,"(41.970634, -87.760892)"
30183,E,HALSTED/63RD (HARLEM-BOUND),HALSTED,HALSTED (GREEN LINE),40940,TRUE,FALSE,FALSE,TRUE,FALSE,FALSE,FALSE,FALSE,FALSE,FALSE,"(41.778943, -87.644244)"
30275,N,87TH (HOWARD-BOUND),87TH,87TH (RED LINE),41430,TRUE,TRUE,FALSE,FALSE,FALSE,FALSE,FALSE,FALSE,FALSE,FALSE,"(41.735372, -87.624717)"
30210,S,47TH (63RD-BOUND),47TH,47TH (GREEN LINE),41080,TRUE,FALSE,FALSE,TRUE,FALSE,FALSE,FALSE,FALSE,FALSE,FALSE,"(41.809209, -87.618826)"
30271,N,CHICAGO (O'HARE-BOUND),CHICAGO,CHICAGO (BLUE LINE),41410,FALSE,FALSE,TRUE,FALSE,FALSE,FALSE,FALSE,FALSE,FALSE,FALSE,"(41.896075, -87.655214)"
30284,S,WESTERN (LOOP-BOUND),WESTERN,WESTERN (BROWN LINE),41480,TRUE,FALSE,FALSE,FALSE,TRUE,FALSE,FALSE,FALSE,FALSE,FALSE,"(41.966163, -87.688502)"
30077,W,FOREST PARK (TERMINAL ARRIVAL),FOREST PARK,FOREST PARK (BLUE LINE),40390,TRUE,FALSE,TRUE,FALSE,FALSE,FALSE,FALSE,FALSE,FALSE,FALSE,"(41.874257, -87.817318)"
30112,S,CALIFORNIA (FOREST PK-BOUND),CALIFORNIA,CALIFORNIA  (BLUE LINE),40570,FALSE,FALSE,TRUE,FALSE,FALSE,FALSE,FALSE,FALSE,FALSE,FALSE,"(41.921939, -87.69689)"
30254,S,PAULINA (LOOP-BOUND),PAULINA,PAULINA (BROWN LINE),41310,TRUE,FALSE,FALSE,FALSE,TRUE,FALSE,FALSE,FALSE,FALSE,FALSE,"(41.943623, -87.670907)"
30007,N,QUINCY/WELLS (INNER LOOP),QUINCY/WELLS,"QUINCY/WELLS (BROWN, ORANGE, PURPLE & PINK LINES)",40040,TRUE,FALSE,FALSE,FALSE,FALSE,FALSE,TRUE,FALSE,TRUE,TRUE,"(41.878723, -87.63374)"
30091,S,MERCHANDISE MART (LOOP-BOUND),MERCHANDISE MART,MERCHANDISE MART (BROWN & PURPLE LINES),40460,TRUE,FALSE,FALSE,FALSE,TRUE,FALSE,TRUE,FALSE,FALSE,FALSE,"(41.888969, -87.633924)"
30051,W,STATE/LAKE (OUTER LOOP),STATE/LAKE,"STATE/LAKE (BROWN, GREEN, ORANGE, PINK & PURPLE LINES)",40260,FALSE,FALSE,FALSE,TRUE,TRUE,FALSE,FALSE,FALSE,FALSE,FALSE,"(41.88574, -87.627835)"
30094,E,CICERO (63RD-BOUND),CICERO,CICERO (GREEN LINE),40480,TRUE,FALSE,FALSE,TRUE,FALSE,FALSE,FALSE,FALSE,FALSE,FALSE,"(41.886519, -87.744698)"
30260,S,MONTROSE (FOREST PK-BOUND),MONTROSE,MONTROSE (BLUE LINE),41330,FALSE,FALSE,TRUE,FALSE,FALSE,FALSE,FALSE,FALSE,FALSE,FALSE,"(41.961539, -87.743574)"
30042,E,WESTERN (FOREST PK BRANCH) (O'HARE-BOUND),WESTERN,WESTERN (BLUE LINE - FOREST PARK BRANCH),40220,FALSE,FALSE,TRUE,FALSE,FALSE,FALSE,FALSE,FALSE,FALSE,FALSE,"(41.875478, -87.688436)"
30285,N,HARRISON (HOWARD-BOUND),HARRISON,HARRISON (RED LINE),41490,FALSE,TRUE,FALSE,FALSE,FALSE,FALSE,FALSE,FALSE,FALSE,FALSE,"(41.874039, -87.627479)"
30127,N,ARMITAGE (KIMBALL-LINDEN-BOUND),ARMITAGE,ARMITAGE (BROWN & PURPLE LINES),40660,TRUE,FALSE,FALSE,FALSE,TRUE,FALSE,TRUE,FALSE,FALSE,FALSE,"(41.918217, -87.652644)"
30227,N,JARVIS (HOWARD-BOUND),JARVIS,JARVIS (RED LINE),41190,FALSE,TRUE,FALSE,FALSE,FALSE,FALSE,FALSE,FALSE,FALSE,FALSE,"(42.015876, -87.669092)"
30017,S,SHERIDAN (95TH-BOUND),SHERIDAN,SHERIDAN (RED LINE),40080,FALSE,TRUE,FALSE,FALSE,FALSE,FALSE,FALSE,FALSE,FALSE,FALSE,"(41.953775, -87.654929)"
30003,E,HARLEM (63RD-BOUND),HARLEM/LAKE,HARLEM/LAKE (GREEN LINE),40020,TRUE,FALSE,FALSE,TRUE,FALSE,FALSE,FALSE,FALSE,FALSE,FALSE,"(41.886848, -87.803176)"
30277,N,ADDISON (KIMBALL-BOUND),ADDISON,ADDISON (BROWN LINE),41440,TRUE,FALSE,FALSE,FALSE,TRUE,FALSE,FALSE,FALSE,FALSE,FALSE,"(41.947028, -87.674642)"
30255,N,BELMONT (HOWARD-BOUND),BELMONT,"BELMONT (RED, BROWN & PURPLE LINES)",41320,TRUE,TRUE,FALSE,FALSE,FALSE,FALSE,FALSE,FALSE,FALSE,FALSE,"(41.939751, -87.65338)"
30136,W,LARAMIE (HARLEM-BOUND),LARAMIE,LARAMIE (GREEN LINE),40700,TRUE,FALSE,FALSE,TRUE,FALSE,FALSE,FALSE,FALSE,FALSE,FALSE,"(41.887163, -87.754986)"
30249,N,KIMBALL (TERMINAL ARRIVAL),KIMBALL,KIMBALL (BROWN LINE),41290,TRUE,FALSE,FALSE,FALSE,TRUE,FALSE,FALSE,FALSE,FALSE,FALSE,"(41.967901, -87.713065)"
30191,N,69TH (HOWARD-BOUND),69TH,69TH (RED LINE),40990,TRUE,TRUE,FALSE,FALSE,FALSE,FALSE,FALSE,FALSE,FALSE,FALSE,"(41.768367, -87.625724)"
30050,E,STATE/LAKE (INNER LOOP),STATE/LAKE,"STATE/LAKE (BROWN, GREEN, ORANGE, PINK & PURPLE LINES)",40260,FALSE,FALSE,FALSE,TRUE,FALSE,FALSE,TRUE,FALSE,TRUE,TRUE,"(41.88574, -87.627835)"
30153,N,MONROE (O'HARE-BOUND),MONROE,MONROE (BLUE LINE),40790,FALSE,FALSE,TRUE,FALSE,FALSE,FALSE,FALSE,FALSE,FALSE,FALSE,"(41.880703, -87.629378)"
30040,E,DAMEN (LOOP-BOUND),DAMEN,DAMEN (PINK LINE),40210,TRUE,FALSE,FALSE,FALSE,FALSE,FALSE,FALSE,FALSE,TRUE,FALSE,"(41.854517, -87.675975)"
30179,E,PULASKI (O'HARE-BOUND),PULASKI,PULASKI (BLUE LINE),40920,FALSE,FALSE,TRUE,FALSE,FALSE,FALSE,FALSE,FALSE,FALSE,FALSE,"(41.873797, -87.725663)"
30186,S,PULASKI (MIDWAY-BOUND),PULASKI,PULASKI (ORANGE LINE),40960,TRUE,FALSE,FALSE,FALSE,FALSE,FALSE,FALSE,FALSE,FALSE,TRUE,"(41.799756, -87.724493)"
30213,N,35-BRONZEVILLE-IIT (HARLEM-BOUND),35TH-BRONZEVILLE-IIT,35TH-BRONZEVILLE-IIT (GREEN LINE),41120,TRUE,FALSE,FALSE,TRUE,FALSE,FALSE,FALSE,FALSE,FALSE,FALSE,"(41.831677, -87.625826)"
30144,W,WESTERN (54TH/CERMAK-BOUND),WESTERN,WESTERN (PINK LINE),40740,TRUE,FALSE,FALSE,FALSE,FALSE,FALSE,FALSE,FALSE,TRUE,FALSE,"(41.854225, -87.685129)"
30235,N,FULLERTON (KIMBALL-LINDEN-BOUND),FULLERTON,"FULLERTON (RED, BROWN & PURPLE LINES)",41220,TRUE,FALSE,FALSE,FALSE,TRUE,FALSE,TRUE,FALSE,FALSE,FALSE,"(41.925051, -87.652866)"
30148,S,GRANVILLE (95TH-BOUND),GRANVILLE,GRANVILLE (RED LINE),40760,TRUE,TRUE,FALSE,FALSE,FALSE,FALSE,FALSE,FALSE,FALSE,FALSE,"(41.993664, -87.659202)"
30071,S,SOUTHPORT (LOOP-BOUND),SOUTHPORT,SOUTHPORT (BROWN LINE),40360,TRUE,FALSE,FALSE,FALSE,TRUE,FALSE,FALSE,FALSE,FALSE,FALSE,"(41.943744, -87.663619)"
30280,S,CHICAGO (95TH-BOUND),CHICAGO,CHICAGO (RED LINE),41450,TRUE,TRUE,FALSE,FALSE,FALSE,FALSE,FALSE,FALSE,FALSE,FALSE,"(41.896671, -87.628176)"
30031,W,LASALLE/VAN BUREN (INNER LOOP),LASALLE/VAN BUREN,"LASALLE/VAN BUREN (BROWN, ORANGE, PURPLE & PINK LINES)",40160,FALSE,FALSE,FALSE,FALSE,FALSE,FALSE,TRUE,FALSE,TRUE,TRUE,"(41.8768, -87.631739)"
30222,W,CLINTON (HARLEM-54TH/CERMAK-BOUND),CLINTON,CLINTON (GREEN & PINK LINES),41160,TRUE,FALSE,FALSE,TRUE,FALSE,FALSE,FALSE,FALSE,TRUE,FALSE,"(41.885678, -87.641782)"
30142,S,WASHINGTON/WELLS (OUTER LOOP),WASHINGTON/WELLS,"WASHINGTON/WELLS (BROWN, ORANGE, PURPLE & PINK LINES)",40730,TRUE,FALSE,FALSE,FALSE,TRUE,FALSE,FALSE,FALSE,FALSE,FALSE,"(41.882695, -87.63378)"
30224,S,GARFIELD (95TH-BOUND),GARFIELD,GARFIELD (RED LINE),41170,TRUE,TRUE,FALSE,FALSE,FALSE,FALSE,FALSE,FALSE,FALSE,FALSE,"(41.79542, -87.631157)"
30244,W,AUSTIN (HARLEM-BOUND),AUSTIN,AUSTIN (GREEN LINE),41260,FALSE,FALSE,FALSE,TRUE,FALSE,FALSE,FALSE,FALSE,FALSE,FALSE,"(41.887293, -87.774135)"
30113,E,54TH/CERMAK (LOOP-BOUND),54TH/CERMAK,54TH/CERMAK (PINK LINE),40580,TRUE,FALSE,FALSE,FALSE,FALSE,FALSE,FALSE,FALSE,TRUE,FALSE,"(41.85177331, -87.75669201)"
30282,S,IRVING PARK (LOOP-BOUND),IRVING PARK,IRVING PARK (BROWN LINE),41460,TRUE,FALSE,FALSE,FALSE,TRUE,FALSE,FALSE,FALSE,FALSE,FALSE,"(41.954521, -87.674868)"
30197,N,LOGAN SQUARE (O'HARE-BOUND),LOGAN SQUARE,LOGAN SQUARE (BLUE LINE),41020,TRUE,FALSE,TRUE,FALSE,FALSE,FALSE,FALSE,FALSE,FALSE,FALSE,"(41.929728, -87.708541)"
30152,W,CENTRAL PARK (54TH/CERMAK-BOUND),CENTRAL PARK,CENTRAL PARK (PINK LINE),40780,TRUE,FALSE,FALSE,FALSE,FALSE,FALSE,FALSE,FALSE,TRUE,FALSE,"(41.853839, -87.714842)"
30087,W,CALIFORNIA (54TH/CERMAK-BOUND),CALIFORNIA,CALIFORNIA (PINK LINE),40440,TRUE,FALSE,FALSE,FALSE,FALSE,FALSE,FALSE,FALSE,TRUE,FALSE,"(41.854109, -87.694774)"
30201,E,KEDZIE (LOOP-BOUND),KEDZIE,KEDZIE (PINK LINE),41040,TRUE,FALSE,FALSE,FALSE,FALSE,FALSE,FALSE,FALSE,TRUE,FALSE,"(41.853964, -87.705408)"
30069,W,UIC-HALSTED (FOREST PK-BOUND),UIC-HALSTED,UIC-HALSTED (BLUE LINE),40350,TRUE,FALSE,TRUE,FALSE,FALSE,FALSE,FALSE,FALSE,FALSE,FALSE,"(41.875474, -87.649707)"
30074,E,CLARK/LAKE (INNER LOOP),CLARK/LAKE,"CLARK/LAKE (BLUE, BROWN, GREEN, ORANGE, PURPLE & PINK LINES)",40380,TRUE,FALSE,FALSE,TRUE,FALSE,FALSE,TRUE,FALSE,TRUE,TRUE,"(41.885737, -87.630886)"
30133,N,DEMPSTER (LINDEN-BOUND),DEMPSTER,DEMPSTER (PURPLE LINE),40690,FALSE,FALSE,FALSE,FALSE,FALSE,TRUE,TRUE,FALSE,FALSE,FALSE,"(42.041655, -87.681602)"
30081,S,ROOSEVELT (MIDWAY-63RD-BOUND),ROOSEVELT,"ROOSEVELT (RED, ORANGE & GREEN LINES)",41400,TRUE,FALSE,FALSE,TRUE,FALSE,FALSE,FALSE,FALSE,FALSE,TRUE,"(41.867405, -87.62659)"
30034,E,OAK PARK (O'HARE-BOUND),OAK PARK,OAK PARK (BLUE LINE),40180,FALSE,FALSE,TRUE,FALSE,FALSE,FALSE,FALSE,FALSE,FALSE,FALSE,"(41.872108, -87.791602)"
30168,S,FRANCISCO (LOOP-BOUND),FRANCISCO,FRANCISCO (BROWN LINE),40870,TRUE,FALSE,FALSE,FALSE,TRUE,FALSE,FALSE,FALSE,FALSE,FALSE,"(41.966046, -87.701644)"
30009,W,CICERO (HARLEM-BOUND),CICERO,CICERO (GREEN LINE),40480,TRUE,FALSE,FALSE,TRUE,FALSE,FALSE,FALSE,FALSE,FALSE,FALSE,"(41.886519, -87.744698)"
30259,N,MONTROSE (O'HARE-BOUND),MONTROSE,MONTROSE (BLUE LINE),41330,FALSE,FALSE,TRUE,FALSE,FALSE,FALSE,FALSE,FALSE,FALSE,FALSE,"(41.961539, -87.743574)"
30125,N,NORTH/CLYBOURN (HOWARD-BOUND),NORTH/CLYBOURN,NORTH/CLYBOURN (RED LINE),40650,FALSE,TRUE,FALSE,FALSE,FALSE,FALSE,FALSE,FALSE,FALSE,FALSE,"(41.910655, -87.649177)"
30172,S,O'HARE (FOREST PK-BOUND),O'HARE,O'HARE (BLUE LINE),40890,TRUE,FALSE,TRUE,FALSE,FALSE,FALSE,FALSE,FALSE,FALSE,FALSE,"(41.97766526, -87.90422307)"
30045,S,CUMBERLAND (FOREST PK-BOUND),CUMBERLAND,CUMBERLAND (BLUE LINE),40230,TRUE,FALSE,TRUE,FALSE,FALSE,FALSE,FALSE,FALSE,FALSE,FALSE,"(41.984246, -87.838028)"
